[{"id": "lot1","name":"SRS Parking","address":"XPH6+JJ2","phone":"+91 80 2670 4272","email":"","lat":12.9790136,"lng":77.7115124,"url":"srsbooking.com","country":"India","state":"Karnataka","city":"Bengaluru","star_count":3.2,"rating_count":25,"visible": true,"category_name":"Airport parking lots,Parking lots,Airports,Valet parking services,Parkings"},
  {"id": "lot2","name":"Karnataka Mobikes","address":"#333/6,, Near Gayathri Papers,","phone":"+91 99646 53630","email":null,"lat":13.0981786,"lng":77.5962058,"url":"","country":"India","state":"Karnataka","city":"Bengaluru","star_count":5,"rating_count":1,"visible": true,"category_name":"Parking lots,Airports,Airport Shuttle Service Providers,Parking lot for bicycles,Bicycle racks,Parking lot for motorcycles,Airport parking lots,Airstrips,Parkings,Valet parking services"},
  {"id": "lot3","name":"Driving","address":"4J84+5QQ","phone":"","email":null,"lat":13.1154662,"lng":77.6069977,"url":"","country":"India","state":"Karnataka","city":"Bengaluru","star_count":0,"rating_count":0,"visible": true,"category_name":"Valet parking services,Airports,Parking lots,Airport parking lots,Parkings,Airstrips"},
  {"id": "lot4","name":"A1 car garage","address":"RMZ gallerya mall, rode, near thirumala-family restaurant","phone":"","email":null,"lat":13.0906941,"lng":77.5936774,"url":"","country":"India","state":"Karnataka","city":"Bengaluru","star_count":0,"rating_count":0,"visible": true,"category_name":"Valet parking services,Garages,Parking lots,Airport parking lots,Parkings"},
  {"id": "lot5","name":"Yelahanka NES Pay & Park","address":"854","phone":"","email":null,"lat":13.0994938,"lng":77.5893911,"url":"","country":"India","state":"Karnataka","city":"Bengaluru","star_count":0,"rating_count":0,"visible": true,"category_name":"Parkings,Public parking lots,Parking lots,Public parking spaces,Free parking lots,Public transports"},
  {"id": "lot6","name":"NES Road Parking Area","address":"721, 16 A Main Rd","phone":"","email":null,"lat":13.0995669,"lng":77.5892281,"url":"","country":"India","state":"Karnataka","city":"Bengaluru","star_count":5,"rating_count":1,"visible": true,"category_name":"Public transports,Free parking lots,Parking lots,Public parking lots,Parkings,Public parking spaces"},
  {"id": "lot7","name":"Yelahanka BBMP Parking-Opposite Dominos - Park+","address":"726-724, 16 A Main Rd","phone":"","email":"support@myparkplus.com","lat":13.0990244,"lng":77.5896081,"url":"parkplus.io","country":"India","state":"Karnataka","city":"Bengaluru","star_count":0,"rating_count":0,"visible": true,"category_name":"Public parking spaces,Parking lots,Handicapped transportation services,Free parking lots,Public transports,Parkings,Public parking lots"},
  {"id": "lot8","name":"Parking Area","address":"4HHQ+824","phone":"","email":null,"lat":13.1282625,"lng":77.5875764,"url":"","country":"India","state":"Karnataka","city":"Bengaluru","star_count":5,"rating_count":3,"visible": true,"category_name":"Parkings,Transportation infrastructures,Valet parking services,Parking lots,Airport parking lots,Parking lot for motorcycles,Transportations"},
  {"id": "lot9","name":"Parking Lot Canadian International Schoola","address":"4H9W+F26","phone":"","email":null,"lat":13.1186534,"lng":77.5950069,"url":"","country":"India","state":"Karnataka","city":"Bengaluru","star_count":0,"rating_count":0,"visible": true,"category_name":"Air force bases,Valet parking services,Transportation infrastructures,Parkings,Airport parking lots,Parking lots"},
  {"id": "lot10","name":"Manjunatha Auto Garage","address":"3HVV+4H3, SH 9","phone":"","email":null,"lat":13.0927546,"lng":77.5939321,"url":"","country":"India","state":"Karnataka","city":"Bengaluru","star_count":5,"rating_count":2,"visible": true,"category_name":"Parking lots,Valet parking services,Airport parking lots,Parking lot for motorcycles,Parking lot for bicycles,Parkings,Public Transportation Systems"},
  {"id": "lot11","name":"Dummy","address":"MSRIT","phone":"","email":null,"lat":13.0306,"lng":77.5649,"url":"","country":"India","state":"Karnataka","city":"Bengaluru","star_count":5,"rating_count":2,"visible": true,"category_name":"Parking lots,Valet parking services,Airport parking lots,Parking lot for motorcycles,Parking lot for bicycles,Parkings,Public Transportation Systems"}
]
